{
    "Cinema_list": [
        {"name": "ลาดกระบัง", "location": "Location 1", "region": "กรุงเทพและปริมณฑล", "cinema_id": "C001"},
        {"name": "บางนา", "location": "Location 2", "region": "กรุงเทพและปริมณฑล", "cinema_id": "C002"},
        {"name": "ปทุมวัน", "location": "Location 3", "region": "กรุงเทพและปริมณฑล", "cinema_id": "C003"},
        {"name": "พระราม 3", "location": "Location 4", "region": "กรุงเทพและปริมณฑล", "cinema_id": "C004"},
        {"name": "นนทบุรี", "location": "Location 5", "region": "กรุงเทพและปริมณฑล", "cinema_id": "C005"},
        {"name": "อยุธยา", "location": "Location 6", "region": "ภาคกลาง", "cinema_id": "C006"},
        {"name": "สุพรรณบุรี", "location": "Location 7", "region": "ภาคกลาง", "cinema_id": "C007"},
        {"name": "นครสวรรค์", "location": "Location 8", "region": "ภาคกลาง", "cinema_id": "C008"},
        {"name": "ชัยนาท", "location": "Location 9", "region": "ภาคกลาง", "cinema_id": "C009"},
        {"name": "สระบุรี", "location": "Location 10", "region": "ภาคกลาง", "cinema_id": "C010"},
        {"name": "เชียงใหม่", "location": "Location 11", "region": "ภาคเหนือ", "cinema_id": "C011"},
        {"name": "เชียงราย", "location": "Location 12", "region": "ภาคเหนือ", "cinema_id": "C012"},
        {"name": "ลำปาง", "location": "Location 13", "region": "ภาคเหนือ", "cinema_id": "C013"},
        {"name": "แพร่", "location": "Location 14", "region": "ภาคเหนือ", "cinema_id": "C014"},
        {"name": "น่าน", "location": "Location 15", "region": "ภาคเหนือ", "cinema_id": "C015"},
        {"name": "ภูเก็ต", "location": "Location 16", "region": "ภาคใต้", "cinema_id": "C016"},
        {"name": "สุราษฎร์ธานี", "location": "Location 17", "region": "ภาคใต้", "cinema_id": "C017"},
        {"name": "กระบี่", "location": "Location 18", "region": "ภาคใต้", "cinema_id": "C018"},
        {"name": "นครศรีธรรมราช", "location": "Location 19", "region": "ภาคใต้", "cinema_id": "C019"},
        {"name": "สงขลา", "location": "Location 20", "region": "ภาคใต้", "cinema_id": "C020"},
        {"name": "ขอนแก่น", "location": "Location 21", "region": "ภาคตะวันออกเฉียงเหนือ", "cinema_id": "C021"},
        {"name": "อุดรธานี", "location": "Location 22", "region": "ภาคตะวันออกเฉียงเหนือ", "cinema_id": "C022"},
        {"name": "นครราชสีมา", "location": "Location 23", "region": "ภาคตะวันออกเฉียงเหนือ", "cinema_id": "C023"},
        {"name": "บุรีรัมย์", "location": "Location 24", "region": "ภาคตะวันออกเฉียงเหนือ", "cinema_id": "C024"},
        {"name": "มหาสารคาม", "location": "Location 25", "region": "ภาคตะวันออกเฉียงเหนือ", "cinema_id": "C025"},
        {"name": "ชลบุรี", "location": "Location 26", "region": "ภาคตะวันออก", "cinema_id": "C026"},
        {"name": "ระยอง", "location": "Location 27", "region": "ภาคตะวันออก", "cinema_id": "C027"},
        {"name": "ตราด", "location": "Location 28", "region": "ภาคตะวันออก", "cinema_id": "C028"},
        {"name": "จันทบุรี", "location": "Location 29", "region": "ภาคตะวันออก", "cinema_id": "C029"},
        {"name": "สระแก้ว", "location": "Location 30", "region": "ภาคตะวันออก", "cinema_id": "C030"},
        {"name": "กาญจนบุรี", "location": "Location 31", "region": "ภาคตะวันตก", "cinema_id": "C031"},
        {"name": "ราชบุรี", "location": "Location 32", "region": "ภาคตะวันตก", "cinema_id": "C032"},
        {"name": "เพชรบุรี", "location": "Location 33", "region": "ภาคตะวันตก", "cinema_id": "C033"},
        {"name": "ประจวบคีรีขันธ์", "location": "Location 34", "region": "ภาคตะวันตก", "cinema_id": "C034"},
        {"name": "ตาก", "location": "Location 35", "region": "ภาคตะวันตก", "cinema_id": "C035"}
    ]
}
